City_ID,City,Lat,Lng,Max Temp,Humidity,Cloudiness,Wind Speed,Country,Date
0,puerto aysen,-45.4,-72.7,278.76,98,85,1.88,CL,1711943566
1,luderitz,-26.6481,15.1594,289.32,86,0,5.44,NA,1711943695
2,floro,61.5996,5.0328,276.61,93,20,3.09,NO,1711943770
3,ushuaia,-54.8,-68.3,276.96,75,75,3.6,AR,1711943590
4,klyuchi,52.2667,79.1667,277.99,62,98,4.66,RU,1711943732
5,tuni,17.35,82.55,306.66,38,3,4.16,IN,1711943770
6,ola,59.5833,151.2833,272.8,74,19,3.86,RU,1711943758
7,badger,64.8,-147.5333,275.29,81,100,6.69,US,1711943730
8,qaqortoq,60.7167,-46.0333,264.7,72,80,2.39,GL,1711943723
9,atbasar,51.8,68.3333,273.32,82,72,5.66,KZ,1711943771
10,stanley,54.868,-1.6985,278.86,94,75,5.66,GB,1711943648
11,praia da vitoria,38.7333,-27.0667,288.57,94,40,8.14,PT,1711943765
12,talcahuano,-36.7167,-73.1167,283.97,76,0,2.57,CL,1711943638
13,san andres,12.5847,-81.7006,301.16,69,20,3.09,CO,1711943772
14,guerrero negro,27.9769,-114.0611,288.91,67,1,5.89,MX,1711943706
15,waitangi,-43.9535,-176.5597,286.94,91,81,2.24,NZ,1711943688
16,isafjordur,66.0755,-23.124,268.11,81,100,11.36,IS,1711943690
17,whitehorse,60.7161,-135.0538,275.58,32,20,8.75,CA,1711943716
18,ribeira grande,38.5167,-28.7,289.14,92,100,8.49,PT,1711943704
19,westport,41.1415,-73.3579,284.72,59,100,1.62,US,1711943747
20,port-aux-francais,-49.35,70.2167,277.9,71,88,9.94,TF,1711943687
21,acarau,-2.8856,-40.12,297.67,89,100,2.3,BR,1711943702
22,zhezqazghan,47.7833,67.7667,275.47,75,0,3.0,KZ,1711943704
23,utrik,11.2278,169.8474,300.16,78,92,8.57,MH,1711943689
24,tiksi,71.6872,128.8694,264.14,84,100,9.14,RU,1711943704
25,punta arenas,-53.15,-70.9167,278.21,87,75,3.6,CL,1711943538
26,yellowknife,62.456,-114.3525,275.05,79,100,9.26,CA,1711943691
27,lebu,-37.6167,-73.65,283.61,76,23,4.62,CL,1711943692
28,kodiak,57.79,-152.4072,274.88,93,40,0.0,US,1711943701
29,kismayo,-0.3582,42.5454,301.47,74,40,3.47,SO,1711943775
30,papatowai,-46.5619,169.4708,284.86,71,95,2.04,NZ,1711943696
31,kyshtovka,56.555,76.6271,273.34,91,100,4.02,RU,1711943775
32,edinburgh of the seven seas,-37.0676,-12.3116,290.43,76,100,6.55,SH,1711943686
33,borzya,50.3833,116.5167,275.53,21,65,2.93,RU,1711943776
34,anadyr,64.75,177.4833,251.48,69,0,6.0,RU,1711943746
35,keflavik,64.0049,-22.5624,270.39,59,0,11.32,IS,1711943742
36,howrah,22.5892,88.3103,306.15,58,0,3.09,IN,1711943603
37,newman,37.3138,-121.0208,287.14,82,54,2.68,US,1711943777
38,blackmans bay,-43.0167,147.3167,293.0,70,100,0.45,AU,1711943690
39,arraial do cabo,-22.9661,-42.0278,296.6,87,2,0.95,BR,1711943760
40,acapulco de juarez,16.8634,-99.8901,299.05,89,20,2.06,MX,1711943777
41,puerto ayora,-0.7393,-90.3518,298.46,95,4,2.24,EC,1711943723
42,wimereux,50.7696,1.6114,282.09,92,71,6.09,FR,1711943778
43,ciudad lazaro cardenas,17.9583,-102.2,295.91,85,18,1.07,MX,1711943718
44,kapuskasing,49.4169,-82.4331,271.2,93,100,5.66,CA,1711943732
45,ust'-ilimsk,58.0006,102.6619,272.84,94,96,3.13,RU,1711943778
46,ambon,-3.6954,128.1814,306.3,67,20,2.06,ID,1711943778
47,bethel,41.3712,-73.414,284.32,63,0,1.61,US,1711943400
48,jamestown,42.097,-79.2353,277.05,97,100,2.06,US,1711943656
49,darovskoy,58.77,47.9564,275.58,89,100,2.66,RU,1711943779
50,villa vicente guerrero,19.1194,-98.1708,291.18,24,28,1.1,MX,1711943779
51,iqaluit,63.7506,-68.5145,274.0,86,100,15.95,CA,1711943706
52,hawaiian paradise park,19.5933,-154.9731,296.88,80,40,3.09,US,1711943700
53,olonkinbyen,70.9221,-8.7187,265.75,72,100,8.34,SJ,1711943699
54,port elizabeth,-33.918,25.5701,292.77,86,0,5.14,ZA,1711943693
55,cam ranh,11.9214,109.1591,306.13,58,20,1.54,VN,1711943780
56,bikenibeu village,1.3673,173.1241,301.13,89,75,4.63,KI,1711943695
57,semey,50.4111,80.2275,278.27,52,0,4.0,KZ,1711943780
58,adamstown,-25.066,-130.1015,296.0,76,100,16.45,PN,1711943689
59,arzgir,45.3728,44.2206,284.4,80,21,2.82,RU,1711943781
60,bilibino,68.0546,166.4372,252.74,76,28,0.82,RU,1711943687
61,nikolayevsk-on-amure,53.1406,140.73,273.16,90,100,4.09,RU,1711943781
62,albany,42.6001,-73.9662,277.48,73,84,0.45,US,1711943461
63,longyearbyen,78.2186,15.6401,251.06,77,0,4.63,SJ,1711943681
64,smithers,54.7804,-127.1743,283.33,23,20,5.14,CA,1711943712
65,st. john's,47.5649,-52.7093,274.76,90,75,6.17,CA,1711943782
66,chengde,40.9725,117.9361,288.95,23,100,3.84,CN,1711943782
67,necocli,8.4234,-76.786,299.79,81,100,3.58,CO,1711943783
68,amga,60.8953,131.9608,266.77,78,60,1.69,RU,1711943687
69,carnarvon,-24.8667,113.6333,305.98,38,40,3.8,AU,1711943722
70,tanjungbalai,2.9667,99.8,305.01,60,18,1.61,ID,1711943783
71,grytviken,-54.2811,-36.5092,270.16,66,13,2.5,GS,1711943683
72,qarauyl,48.9451,79.255,277.63,61,34,0.81,KZ,1711943783
73,shyryayeve,47.3805,30.1964,283.35,83,55,3.95,UA,1711943784
74,port mathurin,-19.6833,63.4167,300.06,83,100,3.23,MU,1711943686
75,manokwari,-0.8667,134.0833,300.85,78,87,0.89,ID,1711943751
76,joaima,-16.6542,-41.0306,296.76,98,84,1.03,BR,1711943784
77,avarua,-21.2078,-159.775,301.18,83,75,2.06,CK,1711943699
78,motueka,-41.1333,173.0167,289.87,71,76,2.37,NZ,1711943785
79,ancud,-41.8697,-73.8203,280.05,87,1,2.18,CL,1711943785
80,ulsteinvik,62.3432,5.8487,279.21,95,86,0.89,NO,1711943785
81,yopal,5.3378,-72.3959,298.08,86,100,0.81,CO,1711943670
82,cole harbour,44.6724,-63.4751,273.81,73,35,1.34,CA,1711943786
83,baijiantan,45.6333,85.1833,281.84,42,100,2.73,CN,1711943786
84,codrington,-38.2667,141.9667,296.15,54,100,3.88,AU,1711943744
85,ilulissat,69.2167,-51.1,269.16,80,75,3.09,GL,1711943726
86,kolwezi,-10.7148,25.4667,290.17,99,100,0.99,CD,1711943786
87,corner brook,48.9667,-57.9484,273.24,99,92,0.99,CA,1711943564
88,ghat,24.9647,10.1728,296.02,9,0,1.36,LY,1711943787
89,puerto natales,-51.7236,-72.4875,277.78,89,97,2.45,CL,1711943452
90,ostersund,63.1792,14.6357,274.4,100,100,3.09,SE,1711943550
91,tralee,52.2704,-9.7026,279.9,95,100,3.53,IE,1711943743
92,eyl,7.9803,49.8164,300.74,72,19,5.3,SO,1711943751
93,alaghsas,17.0187,8.0168,302.39,10,8,3.7,NE,1711943788
94,oppdal,62.5943,9.6912,273.5,97,100,1.17,NO,1711943788
95,cabagan,17.4333,121.75,306.64,38,10,2.4,PH,1711943788
96,nuuk,64.1835,-51.7216,275.49,48,20,5.14,GL,1711943640
97,sisimiut,66.9395,-53.6735,271.08,71,100,4.48,GL,1711943789
98,merizo village,13.2658,144.6691,304.46,87,98,7.82,GU,1711943789
99,port blair,11.6667,92.75,304.17,55,20,1.03,IN,1711943789
100,talara,-4.5772,-81.2719,294.95,85,88,2.24,PE,1711943789
101,hondomachi-hondo,32.45,130.2,291.59,64,0,1.94,JP,1711943789
102,crane,31.3974,-102.3501,298.11,17,100,2.95,US,1711943686
103,fort mcmurray,56.7268,-111.381,281.88,36,100,5.14,CA,1711943515
104,lucapa,-8.4192,20.7447,292.94,97,100,0.66,AO,1711943790
105,okha,53.5739,142.9478,272.63,96,100,4.98,RU,1711943790
106,kill devil hills,36.0307,-75.676,287.58,93,0,1.54,US,1711943672
107,kham sakae saeng,15.3322,102.1728,308.55,30,0,5.53,TH,1711943791
108,college,64.8569,-147.8028,275.33,79,100,6.69,US,1711943683
109,merrill,45.1805,-89.6835,275.31,86,0,0.0,US,1711943513
110,fort bragg,35.139,-79.006,294.06,60,0,2.57,US,1711943792
111,hadibu,12.65,54.0333,300.28,71,9,4.2,YE,1711943697
112,thompson,55.7435,-97.8558,265.24,62,75,1.03,CA,1711943710
113,bredasdorp,-34.5322,20.0403,290.19,64,61,5.74,ZA,1711943686
114,magdagachi,53.45,125.8,272.32,55,29,2.22,RU,1711943793
115,lompoc,34.6391,-120.4579,285.94,89,100,2.57,US,1711943716
116,juhaynah,26.6732,31.4976,291.33,30,14,2.54,EG,1711943793
117,armacao de buzios,-22.7469,-41.8817,297.18,92,5,2.01,BR,1711943794
118,outjo,-20.1167,16.15,291.07,75,30,2.23,NA,1711943794
119,yemva,62.59,50.8594,271.19,88,70,3.25,RU,1711943794
120,moron,-34.6534,-58.6198,292.47,67,98,10.28,AR,1711943794
121,hammerfest,70.6634,23.6821,266.4,93,100,5.66,NO,1711943733
122,zelenoborskiy,66.845,32.3622,266.47,95,100,4.1,RU,1711943795
123,dul'durga,50.6761,113.5931,278.24,35,96,2.21,RU,1711943795
124,pratt,37.6439,-98.7376,292.49,94,0,8.75,US,1711943795
125,udachny,66.4167,112.4,268.24,86,82,6.53,RU,1711943716
126,hermanus,-34.4187,19.2345,289.4,81,5,6.37,ZA,1711943697
127,reggane,26.7158,0.1714,295.61,16,72,3.11,DZ,1711943796
128,mujiayingzi,42.1167,118.7833,284.05,19,85,3.92,CN,1711943796
129,vilyuchinsk,52.9306,158.4028,274.3,98,100,2.9,RU,1711943694
130,hamilton,39.1834,-84.5333,290.77,86,75,4.63,US,1711943652
131,jumla,29.2747,82.1838,289.28,25,51,1.13,NP,1711943796
132,uturoa,-16.7333,-151.4333,301.19,80,97,10.24,PF,1711943688
133,batna,35.556,6.1741,290.71,50,63,3.72,DZ,1711943797
134,sao joao da barra,-21.6403,-41.0511,295.89,91,5,2.8,BR,1711943797
135,inhambane,-23.865,35.3833,296.18,81,98,5.0,MZ,1711943797
136,manakara,-22.1333,48.0167,295.88,93,90,1.81,MG,1711943709
137,sitka,57.0531,-135.33,280.09,57,75,6.17,US,1711943728
138,imeko,7.45,2.85,299.34,86,100,1.85,NG,1711943798
139,pampa del indio,-26.0647,-59.919,297.84,71,49,2.31,AR,1711943798
140,naha,26.2125,127.6811,299.3,78,75,7.2,JP,1711943626
141,port alfred,-33.5906,26.891,292.69,84,94,1.79,ZA,1711943721
142,oranjemund,-28.55,16.4333,288.78,93,3,4.08,NA,1711943799
143,yukhnov,54.7444,35.2297,284.47,82,100,4.06,RU,1711943799
144,antsiranana,-12.2787,49.2917,298.84,91,67,3.95,MG,1711943799
145,dudinka,69.4058,86.1778,250.19,96,99,0.89,RU,1711943800
146,saint-pierre,-21.3393,55.4781,298.97,78,0,3.09,RE,1711943702
147,petropavlovsk-kamchatsky,53.0452,158.6483,273.48,88,75,4.47,RU,1711943697
148,youkounkoun,12.5333,-13.1333,301.1,48,58,2.8,GN,1711943800
149,tazovsky,67.4667,78.7,257.02,88,85,3.78,RU,1711943719
150,nantucket,41.2835,-70.0995,279.34,83,0,2.57,US,1711943728
151,taoudenni,22.6783,-3.9836,300.54,17,52,4.11,ML,1711943801
152,galliano,29.4422,-90.2992,295.93,88,0,2.57,US,1711943736
153,fale old settlement,-9.3852,-171.2468,302.93,74,45,6.14,TK,1711943801
154,port lincoln,-34.7333,135.8667,290.48,73,99,9.16,AU,1711943743
155,altenkunstadt,50.125,11.2503,286.3,84,100,2.27,DE,1711943801
156,polovinnoye,54.7914,65.9864,274.03,99,100,6.34,RU,1711943802
157,khandyga,62.6667,135.6,263.69,83,73,1.13,RU,1711943733
158,vishnyeva,54.7122,26.5225,284.35,82,73,3.53,BY,1711943802
159,matsubase,32.65,130.6667,295.37,46,3,3.03,JP,1711943802
160,brookings,44.3114,-96.7984,274.92,77,100,3.6,US,1711943622
161,bartica,6.4,-58.6167,299.33,89,55,0.99,GY,1711943803
162,cadale,2.7603,46.3222,301.92,75,23,4.67,SO,1711943751
163,margaret river,-33.95,115.0667,294.61,38,0,3.12,AU,1711943429
164,bavly,54.393,53.2602,274.42,99,100,1.42,RU,1711943803
165,nagqu,31.5,92.0,274.9,17,95,9.7,CN,1711943753
166,malango,-2.9627,119.9001,296.71,92,93,0.34,ID,1711943738
167,porto novo,6.4965,2.6036,303.05,82,100,3.12,BJ,1711943804
168,faya-largeau,17.9257,19.1043,299.13,15,24,5.09,TD,1711943804
169,west island,-12.1568,96.8225,304.14,70,40,7.72,CC,1711943706
170,zhanibek,49.4167,46.85,283.12,72,49,3.22,KZ,1711943804
171,kerikeri,-35.2268,173.9474,294.77,73,43,3.68,NZ,1711943744
172,arkhangel'sk,64.5401,40.5433,266.0,92,20,3.0,RU,1711943805
173,masuguru,-11.3667,38.4167,294.74,95,73,1.21,TZ,1711943805
174,sarangani,5.4033,125.4636,300.67,78,23,10.57,PH,1711943805
175,mola di bari,41.0609,17.0873,289.43,82,80,8.89,IT,1711943806
176,kamalpur,24.2,91.8333,301.57,68,62,3.32,IN,1711943806
177,laminusa,5.5549,120.9136,301.67,72,70,2.13,PH,1711943806
178,longquan,24.6719,102.1613,298.87,29,6,8.62,CN,1711943806
179,newport,51.5877,-2.9984,282.47,94,100,2.95,GB,1711943806
180,hilo,19.7297,-155.09,297.0,79,40,3.09,US,1711943720
181,kirensk,57.7853,108.1119,273.69,99,100,3.13,RU,1711943750
182,wailua homesteads,22.0669,-159.378,299.39,71,40,5.14,US,1711943695
183,elliot,-31.3333,27.85,288.5,66,72,3.23,ZA,1711943807
184,ritchie,-29.038,24.6028,289.71,63,99,3.81,ZA,1711943807
185,chonchi,-42.6128,-73.8092,278.71,97,11,0.46,CL,1711943720
186,lapinlahti,65.5833,30.5667,271.09,97,100,4.44,RU,1711943808
187,choibalsan,48.0667,114.5,272.53,72,100,2.01,MN,1711943808
188,nova sintra,14.8667,-24.7167,292.23,75,1,8.16,CV,1711943728
189,tolanaro,-25.0319,46.9987,295.92,88,99,7.26,MG,1711943688
190,east london,-33.0153,27.9116,292.67,82,0,2.06,ZA,1711943765
191,ocher,57.8904,54.7202,274.4,97,100,3.73,RU,1711943809
192,colares,38.7992,-9.4469,286.98,79,3,5.81,PT,1711943809
193,qorovulbozor,39.5006,64.7936,282.99,33,100,3.25,UZ,1711943809
194,abra pampa,-22.7205,-65.697,285.19,67,9,2.52,AR,1711943809
195,riohacha,11.5444,-72.9072,298.85,73,86,5.47,CO,1711943809
196,sanctuary point,-35.1114,150.629,301.47,57,7,6.34,AU,1711943810
197,roma,43.2128,-75.4557,275.3,83,0,0.89,US,1711943524
198,atafu village,-8.5421,-172.5159,303.11,74,81,6.37,TK,1711943726
199,celestun,20.8667,-90.4,298.65,73,0,7.29,MX,1711943810
200,al bawiti,28.3492,28.8659,292.24,48,0,3.77,EG,1711943810
201,turkmenbasy,40.0222,52.9552,280.58,100,75,1.54,TM,1711943811
202,georgetown,5.4112,100.3354,305.9,70,20,3.6,MY,1711943531
203,nemuro,43.3236,145.575,275.56,65,32,3.52,JP,1711943715
204,tash-kumyr,41.3461,72.2171,286.12,35,1,2.42,KG,1711943811
205,dolores,-36.3132,-57.6792,286.43,83,100,2.78,AR,1711943491
206,visakhapatnam,17.69,83.2093,305.09,43,3,5.14,IN,1711943787
207,severo-yeniseyskiy,60.3725,93.0408,262.02,84,100,4.11,RU,1711943812
208,polyarnyy,69.1989,33.4478,264.31,94,93,2.81,RU,1711943750
209,namibe,-15.1961,12.1522,295.89,76,46,1.23,AO,1711943738
210,aasiaat,68.7098,-52.8699,266.42,92,100,3.14,GL,1711943741
211,invercargill,-46.4,168.35,286.49,78,98,3.13,NZ,1711943697
212,laguna,38.421,-121.4238,287.56,76,0,0.0,US,1711943813
213,ridgecrest,35.6225,-117.6709,285.07,62,100,8.05,US,1711943764
214,bardai,11.65,7.2333,298.39,13,99,2.35,NG,1711943740
215,kangding,30.0513,101.9603,290.97,49,12,1.27,CN,1711943813
216,revda,56.801,59.9303,274.29,97,100,5.15,RU,1711943814
217,bontang,0.1333,117.5,301.41,82,100,3.25,ID,1711943814
218,murun-kuren,49.6342,100.1625,275.99,35,5,9.95,MN,1711943814
219,egilsstadir,65.2653,-14.3948,269.1,93,100,11.83,IS,1711943814
220,san carlos del zulia,9.0,-71.9135,298.91,77,72,1.66,VE,1711943815
221,la'ie,21.6477,-157.9253,300.13,74,2,2.68,US,1711943815
222,plastun,44.7561,136.2939,278.23,40,97,5.8,RU,1711943815
223,holualoa,19.6228,-155.9522,297.06,84,40,5.66,US,1711943728
224,nykoping,58.753,17.0079,280.26,96,57,2.75,SE,1711943815
225,aliwal north,-30.6937,26.7114,289.16,74,94,1.19,ZA,1711943815
226,yanam,16.7333,82.2167,307.67,37,1,2.32,IN,1711943816
227,longgang,37.6508,120.3286,286.74,54,94,3.32,CN,1711943816
228,lihue,21.9789,-159.3672,299.73,69,40,5.14,US,1711943539
229,campbell river,50.0163,-125.2446,283.89,87,40,1.03,CA,1711943534
230,enewetak,11.3474,162.3373,300.32,78,99,8.88,MH,1711943688
231,barah,13.7,30.3667,293.7,18,15,4.5,SD,1711943817
232,miyaly,48.8844,53.7836,281.53,62,92,2.3,KZ,1711943817
233,marsabit,2.3284,37.9899,291.43,91,70,6.1,KE,1711943817
234,dakhla,23.6848,-15.958,290.97,86,7,5.89,EH,1711943746
235,huarmey,-10.0681,-78.1522,296.06,82,97,3.69,PE,1711943817
236,hami,42.8,93.45,286.7,24,100,3.41,CN,1711943745
237,aquiraz,-3.9014,-38.3911,299.36,88,100,0.99,BR,1711943818
238,pierre,44.3683,-100.351,274.66,93,100,6.17,US,1711943818
239,tazacorte,28.629,-17.9293,290.69,59,0,3.09,ES,1711943818
240,lebanon,36.2081,-86.2911,294.27,75,100,1.54,US,1711943729
241,tchintabaraden,15.8969,5.7985,301.11,13,83,4.12,NE,1711943819
242,canon city,38.441,-105.2424,287.14,38,75,5.66,US,1711943819
243,preston,53.7667,-2.7167,281.85,89,97,6.7,GB,1711943819
244,nazarovo,56.0064,90.3914,267.39,83,100,4.47,RU,1711943819
245,san antonio de pale,-1.4014,5.6325,302.08,73,99,3.71,GQ,1711943717
246,berdigestyakh,62.0989,126.6992,265.69,79,54,1.14,RU,1711943820
247,emmering,48.1833,11.2833,286.8,44,75,5.14,DE,1711943820
248,guangming,45.3333,122.7833,278.45,23,48,3.57,CN,1711943820
249,sodankyla,67.4167,26.6,267.24,96,100,3.42,FI,1711943820
250,wynyard,-41.0,145.7167,290.77,78,100,3.92,AU,1711943821
251,tual,-5.6667,132.75,301.31,78,87,6.06,ID,1711943821
252,broome,42.2506,-75.833,278.9,76,100,1.21,US,1711943821
253,flying fish cove,-10.4217,105.6791,302.97,74,75,5.14,CX,1711943751
254,bara,10.3744,10.7288,300.48,21,98,2.21,NG,1711943821
255,laojunmiao,39.8333,97.7333,281.1,33,99,2.31,CN,1711943822
256,mammoth lakes,37.6485,-118.9721,270.55,80,100,5.14,US,1711943822
257,cullowhee,35.3137,-83.1765,290.93,77,40,0.89,US,1711943822
258,fort william,56.8165,-5.1121,277.76,82,93,2.48,GB,1711943822
259,ordynskoye,54.3656,81.8994,274.11,99,100,2.66,RU,1711943823
260,valderice,38.0401,12.6151,296.7,48,0,8.75,IT,1711943823
261,baykal'sk,51.5058,104.1469,274.04,85,100,0.24,RU,1711943823
262,mora,11.0461,14.1401,301.38,16,100,1.17,CM,1711943823
263,arno,60.1167,18.6333,274.7,98,93,5.42,SE,1711943823
264,khasab,26.1799,56.2477,298.44,46,100,2.6,OM,1711943824
265,constantia,44.1833,28.65,286.53,63,6,3.24,RO,1711943824
266,kingston,17.997,-76.7936,299.68,80,75,4.12,JM,1711943682
267,buzuluk,52.7807,52.2635,275.91,100,100,3.13,RU,1711943824
268,yarkovo,57.4028,67.0786,274.06,98,100,3.75,RU,1711943824
269,quellon,-43.1167,-73.6167,279.47,86,2,1.55,CL,1711943825
270,boundiali,9.5217,-6.4869,301.0,56,40,3.92,CI,1711943825
271,tambura,5.6,27.4667,295.01,83,99,1.6,SS,1711943825
272,vorgashor,67.5833,63.95,265.84,96,100,3.24,RU,1711943825
273,afaahiti,-17.75,-149.2833,300.08,81,98,11.06,PF,1711943739
274,talnakh,69.4865,88.3972,252.63,98,96,2.34,RU,1711943826
275,general acha,-37.377,-64.6043,286.61,54,100,2.43,AR,1711943826
276,aydincik,36.1437,33.3202,293.05,58,94,0.88,TR,1711943826
277,geraldton,-28.7667,114.6,305.38,29,82,4.63,AU,1711943826
278,val-d'or,48.1002,-77.7828,273.2,64,100,2.06,CA,1711943600
279,coronel dorrego,-38.7187,-61.2873,284.11,65,79,2.92,AR,1711943827
280,obo,5.3998,26.4869,294.64,88,100,2.03,CF,1711943827
281,erenhot,43.6475,111.9767,285.08,23,96,6.5,CN,1711943827
282,naze,28.3667,129.4833,294.66,73,80,5.17,JP,1711943827
283,kurumkan,54.3,110.3,268.78,84,100,1.34,RU,1711943828
284,iskateley,67.6803,53.1512,263.04,90,42,4.96,RU,1711943828
285,turpan,42.9333,89.1667,290.38,23,100,0.61,CN,1711943828
286,bamboo flat,11.7,92.7167,304.2,55,20,1.03,IN,1711943828
287,krusevac,43.58,21.3339,290.35,49,34,2.87,RS,1711943828
288,ulaangom,49.9811,92.0667,270.49,84,30,0.95,MN,1711943829
289,fort wellington,6.4,-57.6,300.48,80,19,4.45,GY,1711943829
290,tshabong,-26.05,22.45,293.52,70,91,2.74,BW,1711943754
291,amungan,15.3652,119.9582,303.23,64,40,4.84,PH,1711943829
292,kruisfontein,-34.0033,24.7314,290.85,88,100,3.32,ZA,1711943756
293,greymouth,-42.4667,171.2,287.9,74,100,1.12,NZ,1711943659
294,remire-montjoly,4.9167,-52.2667,298.17,94,40,0.0,GF,1711943757
295,mogocha,53.7333,119.7667,271.85,64,7,1.46,RU,1711943830
296,pangai,-19.8,-174.35,303.21,79,75,4.63,TO,1711943830
297,ebon,4.582,168.6964,301.6,82,100,8.88,MH,1711943831
298,san jose de jachal,-30.2406,-68.7469,291.34,30,28,1.1,AR,1711943831
299,pueblo,38.2545,-104.6091,288.42,33,0,6.17,US,1711943831
300,qamdo,31.1667,97.2333,275.01,54,100,3.01,CN,1711943831
301,martuk,50.7475,56.5056,276.09,86,100,2.91,KZ,1711943832
302,sabang,5.8933,95.3214,302.35,72,90,3.84,ID,1711943757
303,mount isa,-20.7333,139.5,305.02,40,57,3.6,AU,1711943832
304,inirida,3.8653,-67.9239,297.33,87,96,0.19,CO,1711943832
305,terbanggi besar,-4.8667,105.2333,303.88,67,10,2.17,ID,1711943833
306,mont-laurier,46.5501,-75.4993,270.94,67,33,0.75,CA,1711943722
307,cumnock,55.4544,-4.2664,279.48,87,95,6.44,GB,1711943833
308,klamath falls,42.2249,-121.7817,280.1,36,0,3.6,US,1711943697
309,taroa,8.7058,171.2275,300.49,82,100,9.0,MH,1711943833
310,okhotsk,59.3833,143.3,272.96,85,95,1.57,RU,1711943736
311,haskovo,41.9403,25.5694,286.05,61,31,1.14,BG,1711943834
312,uglegorsk,49.0833,142.0333,272.37,89,100,2.37,RU,1711943834
313,ciudad valles,21.9833,-99.0167,298.58,73,95,1.96,MX,1711943834
314,poronaysk,49.2167,143.1167,275.25,74,82,0.86,RU,1711943834
315,paracuru,-3.41,-39.0306,299.32,90,100,1.74,BR,1711943835
316,barra de santo antonio,-9.4047,-35.5072,298.75,87,32,2.09,BR,1711943835
317,rawson,-43.3002,-65.1023,284.49,51,10,5.93,AR,1711943835
318,jiagedaqi,50.4167,124.1167,272.9,51,43,2.98,CN,1711943835
319,saint-philippe,-21.3585,55.7679,298.92,87,100,4.46,RE,1711943836
320,urangan,-25.3,152.9,298.26,83,98,2.24,AU,1711943836
321,benguela,-12.5763,13.4055,298.85,90,99,1.39,AO,1711943836
322,ceeldheer,3.8488,47.1806,301.63,75,11,4.88,SO,1711943836
323,onega,63.9061,38.1404,272.77,92,100,4.48,RU,1711943836
324,kitgum,3.2783,32.8867,293.28,85,9,1.06,UG,1711943837
325,kailua-kona,19.6406,-155.9956,299.13,84,40,5.66,US,1711943709
326,amahai,-3.3333,128.9167,304.08,67,57,1.99,ID,1711943837
327,callao,-12.0667,-77.15,298.55,78,20,7.72,PE,1711943749
328,luckeesarai,25.1833,86.0833,308.38,10,0,6.86,IN,1711943837
329,erdenet,49.0333,104.0833,278.2,30,56,6.58,MN,1711943838
330,vadso,70.0744,29.7487,263.24,73,20,3.6,NO,1711943713
331,abepura,-2.6333,140.5833,304.6,62,20,2.57,ID,1711943838
332,tshikapa,-6.4167,20.8,295.08,97,100,1.04,CD,1711943838
333,pemba,-12.974,40.5178,297.54,100,75,3.13,MZ,1711943838
334,sur,22.5667,59.5289,300.5,48,72,1.03,OM,1711943839
335,shimla,31.1,77.1667,288.54,48,20,0.0,IN,1711943839
336,yamba,-5.9,22.3,294.9,99,100,0.94,CD,1711943839
337,nicoya,10.1483,-85.452,298.94,60,82,2.07,CR,1711943839
338,beipiao,41.7919,120.7792,283.47,13,76,3.11,CN,1711943839
339,port douglas,-16.4833,145.4667,301.21,65,20,4.55,AU,1711943840
340,brigantine,39.4101,-74.3646,283.26,89,40,2.06,US,1711943840
341,fortuna,40.5982,-124.1573,284.78,88,100,3.09,US,1711943840
342,vila do maio,15.1333,-23.2167,294.59,78,19,7.04,CV,1711943840
343,funafuti,-8.5243,179.1942,307.15,70,75,2.06,TV,1711943841
344,arar,30.9753,41.0381,289.16,51,0,2.06,SA,1711943841
345,nyala,12.05,24.8833,296.18,10,100,5.88,SD,1711943841
346,vorkuta,67.5,64.0,266.11,96,100,3.27,RU,1711943841
347,novo aripuana,-5.1206,-60.3797,296.89,99,97,1.08,BR,1711943842
348,manay,7.215,126.5397,303.99,55,17,5.93,PH,1711943842
349,trinidad,-14.8333,-64.9,297.49,94,54,1.44,BO,1711943842
350,sao felix do xingu,-6.6447,-51.995,296.31,98,87,0.65,BR,1711943842
351,aripuana,-9.1667,-60.6333,297.0,90,19,0.44,BR,1711943723
352,labrador city,52.9463,-66.9114,266.1,73,100,3.6,CA,1711943843
353,monte alegre,-2.0078,-54.0692,297.37,94,99,1.65,BR,1711943843
354,kristiansund,63.1115,7.732,277.51,93,100,4.63,NO,1711943843
355,camara de lobos,32.6333,-16.9667,289.1,83,20,2.57,PT,1711943843
356,hithadhoo,-0.6,73.0833,302.4,70,81,2.11,MV,1711943843
357,puerto cabezas,14.0351,-83.3888,298.15,81,1,2.75,NI,1711943844
358,kuusamo,65.9667,29.1833,268.17,93,100,3.09,FI,1711943844
359,presidente epitacio,-21.7633,-52.1156,295.79,96,100,2.83,BR,1711943844
360,vila velha,-20.3297,-40.2925,298.68,87,0,4.63,BR,1711943765
361,ust'-kut,56.7938,105.7672,272.84,85,100,5.36,RU,1711943845
362,imranli,39.8754,38.1136,282.31,52,59,0.9,TR,1711943845
363,copala,16.65,-98.9833,297.98,76,1,1.12,MX,1711943845
364,san juan de los morros,9.9115,-67.3538,297.23,66,72,2.21,VE,1711943846
365,kandira,41.0736,30.1746,288.38,61,13,2.47,TR,1711943846
366,morehead city,34.7229,-76.726,291.15,86,0,4.12,US,1711943687
367,bakchar,57.0186,82.0711,271.99,78,77,1.51,RU,1711943846
368,bangar,16.8936,120.4243,303.74,66,55,4.01,PH,1711943846
369,herning,56.1393,8.9738,279.01,100,100,2.57,DK,1711943847
370,kone,-21.0595,164.8658,301.22,54,39,2.34,NC,1711943692
371,tanumah,27.1,44.1333,292.45,59,33,2.45,SA,1711943847
372,bol,13.4586,14.7147,300.24,43,94,3.28,TD,1711943847
373,illintsi,49.1048,29.2177,283.34,77,24,3.56,UA,1711943847
374,el granada,37.5027,-122.4694,286.25,82,100,5.14,US,1711943556
375,isiro,2.7739,27.616,292.66,98,100,1.2,CD,1711943739
376,sao tome,0.3365,6.7273,299.66,89,100,4.81,ST,1711943848
377,tucumcari,35.1717,-103.725,292.56,22,0,9.26,US,1711943848
378,steamboat springs,40.485,-106.8317,276.45,79,75,3.13,US,1711943848
379,wewak,-3.5534,143.6268,303.73,67,97,4.27,PG,1711943848
380,loiza,18.4313,-65.8802,299.9,81,75,4.63,PR,1711943849
381,hanceville,34.0607,-86.7675,294.1,93,98,2.69,US,1711943849
382,ust-nera,64.5667,143.2,263.71,78,71,1.79,RU,1711943707
383,itamarandiba,-17.8572,-42.8589,292.14,98,68,1.27,BR,1711943849
384,shalqar,47.8333,59.6,279.43,56,35,0.1,KZ,1711943849
385,biloela,-24.4167,150.5,303.06,38,92,3.5,AU,1711943850
386,sesheke,-17.4759,24.2968,291.08,69,99,1.55,ZM,1711943850
387,nagai,38.1036,140.035,285.49,41,13,6.14,JP,1711943850
388,vernon,50.2581,-119.2691,283.89,46,60,0.0,CA,1711943850
389,sao joao evangelista,-18.5478,-42.7633,292.78,95,50,0.81,BR,1711943851
390,blenheim,-41.516,173.9528,289.0,75,66,1.34,NZ,1711943674
391,mostovskoy,44.4122,40.7936,283.66,59,20,2.61,RU,1711943851
392,isla mujeres,21.2311,-86.731,298.8,70,2,5.52,MX,1711943851
393,charters towers,-20.1,146.2667,301.2,51,79,4.29,AU,1711943680
394,ambanja,-13.6833,48.45,297.78,93,58,1.48,MG,1711943851
395,puerto deseado,-47.7503,-65.8938,284.99,55,33,1.92,AR,1711943852
396,kandalaksha,67.162,32.4123,266.1,96,100,1.95,RU,1711943852
397,garden city,42.3256,-83.331,278.72,87,100,2.06,US,1711943848
398,edd,13.9297,41.6925,301.47,73,10,8.55,ER,1711943852
399,albania,41.0,20.0,287.95,47,41,2.52,AL,1711943605
400,san luis de la loma,17.2706,-100.8939,297.78,75,6,2.4,MX,1711943853
401,taloqan,36.7361,69.5345,287.42,49,66,0.27,AF,1711943853
402,tura,25.5198,90.2201,302.5,46,28,3.6,IN,1711943696
403,selkirk,50.1436,-96.8845,271.23,73,56,0.85,CA,1711943853
404,pangody,65.85,74.4859,261.79,81,100,7.95,RU,1711943854
405,al bardiyah,31.7561,25.0865,290.52,77,0,2.27,LY,1711943854
406,aral,40.5156,81.2636,282.02,82,66,10.23,CN,1711943854
407,chengdu,30.6667,104.0667,296.09,60,0,1.0,CN,1711943837
408,uenohara,35.6167,139.1167,291.54,74,92,1.8,JP,1711943854
409,almeria,37.1667,-2.3333,280.24,75,56,2.94,ES,1711943855
410,borogontsy,62.6683,131.1683,264.71,82,82,2.71,RU,1711943855
411,pandan,14.0453,124.1694,303.02,65,57,3.23,PH,1711943855
412,isla vista,34.4133,-119.861,285.62,90,100,0.0,US,1711943855
413,guozhen,34.3659,107.359,293.26,65,100,1.07,CN,1711943856
414,katima mulilo,-17.5,24.2667,291.1,70,100,1.45,NA,1711943856
415,kavieng,-2.5744,150.7967,301.91,73,58,2.74,PG,1711943856
416,capao da canoa,-29.7456,-50.0097,294.87,84,55,0.98,BR,1711943584
417,saipan,15.1355,145.701,302.54,1,40,7.72,MP,1711943857
418,chibougamau,49.9168,-74.3659,264.94,79,0,2.06,CA,1711943857
419,santa terezinha,-29.9002,-50.0904,295.3,87,68,1.58,BR,1711943857
420,yuzhno-kurilsk,44.0306,145.8556,277.25,66,9,2.13,RU,1711943857
421,holly springs,35.6513,-78.8336,293.52,63,10,0.45,US,1711943626
422,gadzhiyevo,69.2551,33.3362,263.41,95,91,2.37,RU,1711943712
423,rongelap,11.1635,166.8941,300.12,76,56,9.25,MH,1711943858
424,ta`u,-14.2336,-169.5144,302.56,75,95,8.21,AS,1711943858
425,bedesa,8.9,40.7833,291.65,76,92,3.18,ET,1711943858
426,kapit,2.0167,112.9333,299.84,89,100,0.32,MY,1711943858
427,lata,40.1629,-8.3327,281.99,96,49,2.22,PT,1711943859
428,hilton head island,32.2163,-80.7526,293.21,74,0,0.45,US,1711943663
429,wotho,10.1657,166.0102,300.22,79,100,9.6,MH,1711943859
430,wanning,18.8003,110.3967,303.05,69,1,7.03,CN,1711943859
431,kanniyakumari,8.0833,77.5667,303.03,63,88,0.42,IN,1711943860
432,akureyri,65.6835,-18.0878,268.11,93,100,4.63,IS,1711943860
433,puerto baquerizo moreno,-0.9,-89.6,297.54,83,7,4.58,EC,1711943860
434,papao,-17.75,-149.55,300.97,82,99,12.01,PF,1711943861
435,coquimbo,-29.9533,-71.3436,289.0,94,0,0.51,CL,1711943714
436,paita,-5.0892,-81.1144,295.29,81,83,2.81,PE,1711943861
437,lubartow,51.4603,22.6095,285.39,74,27,5.28,PL,1711943861
438,murray,40.6669,-111.888,277.99,85,100,6.17,US,1711943814
439,sterling,39.0062,-77.4286,286.21,76,100,2.57,US,1711943661
440,valparaiso,-33.0393,-71.6273,292.3,55,0,3.09,CL,1711943621
441,minas de marcona,-15.2119,-75.1103,290.47,85,98,4.08,PE,1711943862
442,xining,36.6167,101.7667,281.71,64,100,0.98,CN,1711943862
443,krasnogorskoye,52.2953,86.1979,275.42,99,100,2.78,RU,1711943862
444,vilyuysk,63.7553,121.6247,265.37,78,7,2.68,RU,1711943716
445,maragogi,-9.0122,-35.2225,299.54,84,41,1.7,BR,1711943863
446,kartaly,53.0522,60.6467,274.83,100,100,4.92,RU,1711943863
447,tangalle,6.024,80.7911,303.24,64,53,2.74,LK,1711943863
448,cajati,-24.7361,-48.1228,294.51,93,79,0.55,BR,1711943863
449,monrovia,6.3005,-10.7969,299.75,90,61,1.84,LR,1711943864
450,olyokminsk,60.3736,120.4264,267.94,73,100,2.11,RU,1711943864
451,san patricio,28.017,-97.5169,296.95,92,100,7.15,US,1711943864
452,trollhattan,58.2333,12.4167,279.63,91,100,3.6,SE,1711943864
453,makoua,0.0069,15.6333,296.24,90,95,1.25,CG,1711943865
454,dunedin,-45.8742,170.5036,286.05,74,100,2.84,NZ,1711943611
455,trevelin,-43.0858,-71.4639,277.86,86,0,2.33,AR,1711943865
456,kievka,50.2619,71.5514,275.99,59,14,4.41,KZ,1711943866
457,suva,-18.1416,178.4415,302.86,74,75,3.6,FJ,1711943742
458,nabire,-3.3667,135.4833,303.88,65,78,2.62,ID,1711943866
459,camana,-16.6228,-72.7111,295.4,85,100,3.11,PE,1711943866
460,shamakhi,40.6314,48.6414,283.35,70,28,0.98,AZ,1711943866
461,carbonear,47.7332,-53.2148,275.61,86,100,3.67,CA,1711943867
462,castillos,-34.1667,-53.8333,289.34,71,100,4.6,UY,1711943694
463,vilhena,-12.7406,-60.1458,296.37,91,96,0.76,BR,1711943867
464,san pedro,14.35,121.0167,306.72,63,20,3.09,PH,1711943867
465,guangyuan,32.442,105.823,290.69,93,100,1.08,CN,1711943867
466,lerwick,60.1545,-1.1494,279.15,88,36,5.64,GB,1711943762
467,villamontes,-21.25,-63.5,296.14,90,100,1.49,BO,1711943868
468,luau,-10.7073,22.2247,291.77,99,100,0.74,AO,1711943868
469,virginia beach,36.8529,-75.978,286.49,83,75,2.06,US,1711943853
470,granbury,32.4421,-97.7942,295.55,86,0,4.12,US,1711943843
471,aldan,58.6031,125.3894,265.95,83,89,1.57,RU,1711943834
472,hurricane,37.1753,-113.2899,281.75,74,75,0.89,US,1711943869
473,bairnsdale,-37.8333,147.6167,298.74,63,86,2.24,AU,1711943869
474,pisco,-13.7,-76.2167,295.18,83,0,2.57,PE,1711943736
475,coronel du graty,-27.6804,-60.9146,295.94,88,35,2.91,AR,1711943870
476,tromso,69.6496,18.957,269.16,68,75,4.12,NO,1711943870
477,luganville,-15.5333,167.1667,300.34,84,84,4.83,VU,1711943870
478,antofagasta,-23.65,-70.4,292.75,82,52,1.54,CL,1711943777
479,bulayevo,54.9056,70.4439,274.11,87,100,7.16,KZ,1711943870
480,ponta delgada,37.7333,-25.6667,288.55,77,75,7.2,PT,1711943871
481,ranau,5.9538,116.6641,305.23,49,100,1.82,MY,1711943871
482,rotonda west,26.8837,-82.2901,294.81,96,0,0.0,US,1711943625
483,lazaro cardenas,17.9583,-102.2,295.91,85,18,1.07,MX,1711943871
484,natal,-5.795,-35.2094,298.27,94,0,1.03,BR,1711943679
485,quesnel,52.9999,-122.5029,284.43,40,75,0.84,CA,1711943871
486,port saint john's,-31.6229,29.5448,295.86,75,63,4.6,ZA,1711943872
487,chesapeake,36.819,-76.2749,286.17,86,75,3.6,US,1711943769
488,christchurch,-43.5333,172.6333,290.6,60,75,3.6,NZ,1711943592
489,cabo san lucas,22.8909,-109.9124,295.24,77,98,0.45,MX,1711943587
490,karratha,-20.7377,116.8463,308.8,25,0,4.13,AU,1711943872
491,souillac,-20.5167,57.5167,298.9,100,75,0.0,MU,1711943873
492,susuman,62.7833,148.1667,264.75,74,78,1.21,RU,1711943715
493,xilin hot,43.9667,116.0333,283.46,19,90,4.31,CN,1711943873
494,altamira,-3.2033,-52.2064,296.14,99,100,0.74,BR,1711943873
495,cadillac,44.2519,-85.4012,275.81,80,75,1.54,US,1711943874
496,envira,-7.3,-70.2167,295.72,96,100,0.47,BR,1711943874
497,kokopo,-4.352,152.2633,300.28,83,94,5.58,PG,1711943874
498,lahad datu,5.0268,118.327,304.62,61,73,1.95,MY,1711943874
499,la passe,45.5549,-0.8967,282.58,81,84,6.98,FR,1711943720
500,sangueya,10.7,-14.3667,298.04,77,100,2.3,GN,1711943875
501,chishmy,54.5765,55.3764,275.28,100,100,2.35,RU,1711943875
502,prado,-17.3411,-39.2208,297.97,92,79,2.25,BR,1711943875
503,port hedland,-20.3167,118.5667,312.18,18,2,3.6,AU,1711943717
504,belel,7.05,14.4333,290.83,81,100,2.17,CM,1711943875
505,walvis bay,-22.9575,14.5053,288.76,94,31,2.57,NA,1711943702
506,mili,6.0815,171.735,301.21,81,59,8.66,MH,1711943725
507,palmares do sul,-30.2578,-50.5097,295.36,93,100,2.63,BR,1711943876
508,tobelo,1.7284,128.0095,302.4,67,85,3.19,ID,1711943876
509,mossel bay,-34.1831,22.146,290.11,78,100,3.39,ZA,1711943876
510,bati,11.1833,40.0167,292.58,64,86,0.26,ET,1711943877
511,busayra,30.7376,35.6078,287.19,53,10,3.55,JO,1711943877
512,san francisco de asis,10.2868,-73.894,298.92,59,90,0.88,CO,1711943877
513,colonia,50.9333,6.95,284.28,87,100,2.06,DE,1711943877
514,kyparissia,37.2511,21.6736,289.08,48,51,2.73,GR,1711943877
515,lebork,54.5392,17.7501,284.9,76,96,1.68,PL,1711943878
516,joutseno,61.118,28.5076,276.18,99,83,3.44,FI,1711943878
517,barreirinhas,-2.7469,-42.8264,298.87,92,99,2.0,BR,1711943878
518,preobrazheniye,42.9019,133.9064,278.01,45,14,5.9,RU,1711943878
519,bundaberg north,-24.8551,152.3425,299.38,86,100,0.89,AU,1711943879
520,barreiras,-12.1528,-44.99,298.42,76,100,1.14,BR,1711943879
521,oxford,51.7522,-1.256,281.88,94,40,2.57,GB,1711943752
522,tukuyu,-9.25,33.65,290.15,98,99,0.26,TZ,1711943879
523,jinchang,38.4953,102.1739,285.42,40,100,5.56,CN,1711943879
524,deva,45.8833,22.9,287.59,57,100,0.66,RO,1711943880
525,rampur,28.8167,79.0333,297.43,15,49,7.43,IN,1711943880
526,kapa'a,22.0752,-159.319,300.14,70,40,5.14,US,1711943880
527,tomatlan,19.9333,-105.25,293.98,80,97,0.46,MX,1711943880
528,lorengau,-2.0226,147.2712,302.33,80,64,3.81,PG,1711943881
529,la sarre,48.8002,-79.1996,269.89,96,82,2.04,CA,1711943806
530,badagry,6.4167,2.8833,301.27,82,100,4.23,NG,1711943881
531,bull savanna,17.8868,-77.5902,296.46,82,13,2.95,JM,1711943881
532,nar'yan-mar,67.6713,53.087,263.08,90,41,4.98,RU,1711943881
533,padang,-0.9492,100.3543,303.18,76,51,1.93,ID,1711943882
534,soata,6.3337,-72.6828,289.86,93,100,0.81,CO,1711943882
535,grand falls-windsor,48.9332,-55.6649,274.54,83,99,0.45,CA,1711943709
536,glace bay,46.1969,-59.957,272.67,78,40,2.57,CA,1711943882
537,mossingen,48.4057,9.0542,283.52,83,100,0.54,DE,1711943882
538,berasia,23.6333,77.4333,299.4,15,65,3.64,IN,1711943883
539,vera cruz,-12.6333,-41.0333,295.91,91,88,0.62,BR,1711943883
540,paragominas,-2.9667,-47.4833,296.58,99,100,0.9,BR,1711943883
541,haiku-pauwela,20.9219,-156.3051,299.16,69,20,8.75,US,1711943722
542,arafat,21.3594,39.9664,299.03,55,6,1.33,SA,1711943884
543,usinsk,65.9939,57.5281,265.41,93,98,7.6,RU,1711943884
544,caruthersville,36.1931,-89.6556,296.14,76,100,1.79,US,1711943884
545,villacanas,39.6237,-3.3381,279.24,80,64,6.96,ES,1711943884
546,karkira,36.9292,6.5856,288.02,84,83,3.31,DZ,1711943884
547,reyes,-14.3167,-67.3833,296.82,94,81,0.95,BO,1711943885
548,quibala,-10.7337,14.98,290.79,98,98,0.33,AO,1711943885
549,horta,38.5333,-28.6333,288.72,92,100,7.6,PT,1711943885
550,port moresby,-9.4431,147.1797,301.8,77,73,2.26,PG,1711943885
551,perelyub,51.8667,50.3667,277.56,98,97,2.12,RU,1711943886
552,baiao,-2.7906,-49.6717,297.02,99,100,0.96,BR,1711943886
553,elko,41.0002,-115.5012,273.18,87,94,1.05,US,1711943886
554,gamba,-2.65,10.0,297.78,88,100,2.05,GA,1711943886
555,boyolangu,-8.1181,111.8935,302.18,76,85,3.71,ID,1711943886
556,villablino,42.9393,-6.3194,276.14,95,99,4.23,ES,1711943887
557,mirabad,30.4362,61.8383,294.01,14,65,1.43,AF,1711943887
558,coronel suarez,-37.4547,-61.9334,284.65,60,100,2.54,AR,1711943887
559,vostochnyy,55.8167,37.8667,283.14,74,100,3.75,RU,1711943888
560,nova vicosa,-17.8919,-39.3719,298.61,89,74,2.86,BR,1711943754
561,priargunsk,50.3691,119.1012,266.19,76,24,1.12,RU,1711943888
562,khorixas,-20.3667,14.9667,293.68,47,2,1.44,NA,1711943888
